City_ID,City,Lat,Lng,Max Temp,Humidity,Cloudiness,Wind Speed,Country,Date
0,olonkinbyen,70.9221,-8.7187,35.62,74,100,11.32,SJ,1698728357
1,thompson,55.7435,-97.8558,19.56,73,100,6.91,CA,1698728357
2,misratah,32.3754,15.0925,72.0,62,2,14.5,LY,1698728357
3,port elizabeth,-33.918,25.5701,62.31,75,0,13.8,ZA,1698728357
4,afaahiti,-17.75,-149.2833,78.67,83,37,20.69,PF,1698728357
5,datong,40.0936,113.2914,66.2,20,12,14.58,CN,1698728358
6,jhargram,22.45,86.9833,82.78,54,1,5.82,IN,1698728358
7,kapa'a,22.0752,-159.319,79.12,75,40,9.22,US,1698728358
8,bushehr,28.9684,50.8385,78.89,47,75,4.61,IR,1698728358
9,ilulissat,69.2167,-51.1,27.73,61,9,12.77,GL,1698728359
10,sao vicente,-23.9631,-46.3919,86.18,26,93,3.83,BR,1698728283
11,puerto natales,-51.7236,-72.4875,31.82,80,1,3.87,CL,1698728074
12,port-aux-francais,-49.35,70.2167,39.27,87,100,37.94,TF,1698728360
13,adamstown,-25.066,-130.1015,73.06,79,100,7.94,PN,1698728360
14,sosnogorsk,63.6023,53.8817,15.55,99,98,3.0,RU,1698728360
15,bilibino,68.0546,166.4372,1.18,80,71,3.56,RU,1698728361
16,tacna,-18.0056,-70.2483,56.3,85,35,2.95,PE,1698728362
17,shengli,37.4564,118.4856,83.21,25,1,12.15,CN,1698728362
18,ouallam,14.3188,2.0866,81.14,13,63,10.42,NE,1698728362
19,tionk essil,12.7856,-16.5217,76.96,85,92,3.85,SN,1698728363
20,waitangi,-43.9535,-176.5597,55.81,87,100,14.0,NZ,1698728363
21,grytviken,-54.2811,-36.5092,36.77,83,72,6.22,GS,1698728363
22,arzgir,45.3728,44.2206,54.32,77,11,7.56,RU,1698728363
23,alofi,-19.0595,-169.9187,78.69,69,75,11.5,NU,1698728364
24,london,51.5085,-0.1257,48.49,93,20,4.61,GB,1698728080
25,bamboo flat,11.7,92.7167,86.09,79,40,8.05,IN,1698728364
26,mata-utu,-13.2816,-176.1745,83.73,76,11,15.23,WF,1698728364
27,port blair,11.6667,92.75,86.04,79,40,8.05,IN,1698728364
28,castillos,-34.1667,-53.8333,56.25,84,100,14.16,UY,1698728365
29,newman,37.3138,-121.0208,60.03,10,12,3.22,US,1698728365
30,hawaiian paradise park,19.5933,-154.9731,76.51,93,100,5.75,US,1698728365
31,talnakh,69.4865,88.3972,4.21,96,99,4.81,RU,1698728365
32,bismarck,46.8083,-100.7837,16.81,70,20,21.85,US,1698728366
33,kapuskasing,49.4169,-82.4331,21.29,79,75,5.75,CA,1698728366
34,edinburgh of the seven seas,-37.0676,-12.3116,57.33,94,94,25.41,SH,1698728366
35,chonchi,-42.6128,-73.8092,35.11,96,6,0.96,CL,1698728366
36,luderitz,-26.6481,15.1594,63.21,45,1,2.42,NA,1698728366
37,smara,26.7384,-11.6719,71.62,47,50,6.17,EH,1698728367
38,tazovsky,67.4667,78.7,3.76,96,35,5.86,RU,1698728367
39,hasaki,35.7333,140.8333,70.2,53,44,5.5,JP,1698728367
40,walvis bay,-22.9575,14.5053,58.15,94,100,1.14,NA,1698728367
41,port macquarie,-31.4333,152.9167,80.89,65,88,10.76,AU,1698728367
42,papatowai,-46.5619,169.4708,56.68,72,93,3.24,NZ,1698728368
43,yima,34.7381,111.8839,77.61,29,51,7.58,CN,1698728368
44,suva,-18.1416,178.4415,81.88,78,75,8.05,FJ,1698728306
45,udachny,66.4167,112.4,-2.54,95,99,7.07,RU,1698728368
46,stanley,54.868,-1.6985,42.82,92,100,8.05,GB,1698728368
47,ushuaia,-54.8,-68.3,38.86,96,100,10.36,AR,1698728369
48,punta arenas,-53.15,-70.9167,32.11,74,0,8.05,CL,1698728369
49,codrington,-38.2667,141.9667,57.6,50,79,16.55,AU,1698728369
50,falam,22.9167,93.6833,74.71,50,17,3.65,MM,1698728369
51,tiksi,71.6872,128.8694,-4.22,100,89,2.73,RU,1698728369
52,isafjordur,66.0755,-23.124,34.63,72,35,3.6,IS,1698728370
53,albany,42.6001,-73.9662,41.67,83,92,7.4,US,1698728342
54,buka,40.8108,69.1986,57.27,71,100,11.97,UZ,1698728370
55,thunder bay,48.4001,-89.3168,26.58,59,100,6.91,CA,1698728227
56,igarka,67.4667,86.5833,3.45,93,98,4.34,RU,1698728370
57,iqaluit,63.7506,-68.5145,11.93,72,100,21.85,CA,1698728371
58,preobrazheniye,42.9019,133.9064,58.37,80,40,9.1,RU,1698728371
59,georgetown,5.4112,100.3354,91.33,70,20,9.22,MY,1698728371
60,anadyr,64.75,177.4833,34.3,93,20,2.24,RU,1698728371
61,viedma,-40.8135,-62.9967,41.49,79,3,6.71,AR,1698728137
62,balqash,46.8481,74.995,46.99,87,40,17.9,KZ,1698728372
63,wailua homesteads,22.0669,-159.378,77.79,75,40,9.22,US,1698728372
64,labrador city,52.9463,-66.9114,19.31,68,75,5.75,CA,1698728142
65,invercargill,-46.4,168.35,60.03,73,100,11.01,NZ,1698728372
66,cidreira,-30.1811,-50.2056,64.04,90,100,11.9,BR,1698728372
67,ribeira grande,38.5167,-28.7,67.77,85,48,13.0,PT,1698728373
68,joal-fadiout,14.1667,-16.8333,80.62,77,43,7.16,SN,1698728373
69,whistler,50.1164,-122.9695,36.55,69,16,1.81,CA,1698728373
70,taoudenni,22.6783,-3.9836,82.63,13,5,9.6,ML,1698728373
71,tolanaro,-25.0319,46.9987,71.67,94,75,6.91,MG,1698728373
72,kupang,-10.1667,123.5833,91.98,55,40,10.36,ID,1698728374
73,blackmans bay,-43.0167,147.3167,59.52,54,85,3.0,AU,1698728374
74,colesberg,-30.72,25.0972,49.87,67,42,9.55,ZA,1698728374
75,mar del plata,-38.0023,-57.5575,51.94,69,0,3.0,AR,1698728278
76,sedan,49.6667,5.0,46.18,99,95,8.43,FR,1698728374
77,sidrolandia,-20.9319,-54.9614,76.78,74,83,5.5,BR,1698728375
78,klyuchi,52.2667,79.1667,43.03,92,100,6.13,RU,1698728375
79,west island,-12.1568,96.8225,82.38,78,75,14.97,CC,1698728375
80,fort st. john,56.2499,-120.8529,35.49,60,75,5.75,CA,1698728347
81,as samawah,31.332,45.2944,80.1,31,66,3.83,IQ,1698728375
82,san juan,-31.5375,-68.5364,57.13,26,1,11.41,AR,1698728376
83,el calafate,-50.3408,-72.2768,38.55,65,20,3.47,AR,1698728376
84,longyearbyen,78.2186,15.6401,31.84,80,75,23.02,SJ,1698728376
85,freetown,8.484,-13.2299,78.46,85,36,4.74,SL,1698728376
86,utrik,11.2278,169.8474,82.51,80,100,18.77,MH,1698728376
87,constantia,44.1833,28.65,52.7,88,3,7.81,RO,1698728377
88,pisco,-13.7,-76.2167,66.25,82,12,12.66,PE,1698728377
89,pangody,65.85,74.4859,9.14,93,53,6.76,RU,1698728377
90,al kharijah,25.4514,30.5464,73.62,53,0,6.58,EG,1698728377
91,vila franca do campo,37.7167,-25.4333,66.88,99,63,11.5,PT,1698728377
92,aykhal,66.0,111.5,-4.97,98,99,8.7,RU,1698728378
93,enewetak,11.3474,162.3373,82.65,81,100,20.67,MH,1698728378
94,inhambane,-23.865,35.3833,68.0,88,75,11.99,MZ,1698728378
95,hadibu,12.65,54.0333,80.6,72,95,9.04,YE,1698728378
96,kavieng,-2.5744,150.7967,80.71,80,92,10.45,PG,1698728378
97,stephenville,32.2207,-98.2023,40.93,74,0,0.0,US,1698728379
98,teuva,62.4819,21.7416,21.58,92,100,8.46,FI,1698728379
99,east london,-33.0153,27.9116,58.93,78,18,10.31,ZA,1698728379
100,dickinson,29.4608,-95.0513,50.99,84,100,18.41,US,1698728379
101,mount gambier,-37.8333,140.7667,58.57,44,77,10.22,AU,1698728379
102,badger,64.8,-147.5333,30.45,93,75,0.0,US,1698728380
103,rechytsa,52.3617,30.3916,44.71,89,100,6.24,BY,1698728255
104,bethel,41.3712,-73.414,48.07,78,20,4.61,US,1698728102
105,novodvinsk,64.4165,40.8122,16.79,97,63,4.61,RU,1698728380
106,kone,-21.0595,164.8658,76.51,54,23,8.5,NC,1698728380
107,princeville,45.7668,-61.2985,39.63,97,100,4.61,CA,1698728380
108,nuuk,64.1835,-51.7216,38.3,61,100,14.47,GL,1698728381
109,severo-yeniseyskiy,60.3725,93.0408,9.57,79,38,3.0,RU,1698728381
110,keflavik,64.0049,-22.5624,36.03,80,40,11.5,IS,1698728381
111,aswan,24.0934,32.907,74.5,56,0,0.0,EG,1698728382
112,tuma,55.148,40.5537,42.94,94,93,6.62,RU,1698728382
113,yellowknife,62.456,-114.3525,23.56,99,20,5.75,CA,1698728383
114,san patricio,28.017,-97.5169,49.86,62,100,12.19,US,1698728383
115,waingapu,-9.6567,120.2641,89.69,54,2,13.29,ID,1698728384
116,aasiaat,68.7098,-52.8699,23.65,73,27,16.02,GL,1698728384
117,saint-pierre,-21.3393,55.4781,82.56,65,0,4.61,RE,1698728384
118,lebu,-37.6167,-73.65,44.06,84,90,9.01,CL,1698728384
119,valparaiso,-33.0393,-71.6273,53.24,76,0,2.3,CL,1698728385
120,dolinsk,47.35,142.8,51.73,66,36,5.39,RU,1698728385
121,karratha,-20.7377,116.8463,92.1,29,40,17.58,AU,1698728385
122,vilyuchinsk,52.9306,158.4028,43.07,65,17,6.71,RU,1698728385
123,margaret river,-33.95,115.0667,66.15,52,44,10.76,AU,1698728385
124,fale old settlement,-9.3852,-171.2468,83.68,78,100,16.42,TK,1698728386
125,cockburn town,21.4612,-71.1419,83.21,82,98,12.97,TC,1698728386
126,lihue,21.9789,-159.3672,76.35,77,87,6.22,US,1698728386
127,faaa,-17.55,-149.6,80.56,78,40,3.44,PF,1698728386
128,malmberget,67.1753,20.6549,5.56,85,0,4.61,SE,1698728386
129,selfoss,63.9331,-20.9971,28.04,77,42,8.81,IS,1698728387
130,changling,44.2653,124.0005,55.17,29,96,18.84,CN,1698728387
131,nova sintra,14.8667,-24.7167,74.28,66,64,2.1,CV,1698728387
132,griffith,41.5284,-87.4237,31.89,74,0,4.61,US,1698728387
133,el alto,-4.2714,-81.2147,69.58,76,99,14.25,PE,1698728387
134,biharamulo,-2.6319,31.3089,68.68,66,82,4.43,TZ,1698728388
135,kijang,35.2442,129.2139,73.13,41,0,9.91,KR,1698728388
136,kimbe,-5.5502,150.1429,77.9,91,100,3.51,PG,1698728388
137,laojunmiao,39.8333,97.7333,58.17,16,33,4.41,CN,1698728388
138,kailua-kona,19.6406,-155.9956,80.51,87,3,1.99,US,1698728389
139,okhotsk,59.3833,143.3,31.64,93,100,10.74,RU,1698728389
140,oranjemund,-28.55,16.4333,66.56,38,2,6.55,NA,1698728389
141,riverton,40.5219,-111.9391,37.63,60,0,8.01,US,1698728390
142,hyesan-dong,41.3976,128.1787,63.97,44,46,10.71,KP,1698728390
143,st. john's,47.5649,-52.7093,34.9,95,100,4.61,CA,1698728390
144,rakops,-21.0167,24.3333,63.82,77,11,14.52,BW,1698728390
145,garissa,-0.4536,39.6401,81.64,66,26,9.64,KE,1698728390
146,belyy yar,53.6039,91.3903,30.09,86,75,0.0,RU,1698728391
147,vilyuysk,63.7553,121.6247,12.0,87,56,1.01,RU,1698728391
148,cole harbour,44.6724,-63.4751,40.71,96,100,12.66,CA,1698728391
149,broome,42.2506,-75.833,39.65,94,100,10.36,US,1698728391
150,bardai,11.65,7.2333,71.65,25,99,9.04,NG,1698728391
151,brumunddal,60.881,10.9395,28.99,75,100,7.25,NO,1698728392
152,eldorado,-23.7869,-54.2836,70.99,97,77,5.66,BR,1698728392
153,formosa do rio preto,-11.0483,-45.1931,76.75,38,25,0.29,BR,1698728392
154,conception bay south,47.4999,-52.9981,34.66,95,100,4.07,CA,1698728392
155,colonia,50.9333,6.95,52.86,86,100,5.75,DE,1698728392
156,gao,16.6362,1.637,76.48,13,1,12.59,ML,1698728393
157,college,64.8569,-147.8028,30.52,93,75,0.0,US,1698728393
158,leh,34.1667,77.5833,40.53,29,0,1.01,IN,1698728393
159,saipan,15.1355,145.701,88.5,74,20,13.8,MP,1698728393
160,kingston,17.997,-76.7936,85.15,85,75,4.61,JM,1698728387
161,naberera,-4.2,36.9333,65.55,78,89,7.99,TZ,1698728394
162,makurazaki,31.2667,130.3167,67.21,61,0,4.27,JP,1698728394
163,obock,12.25,43.0833,73.89,70,78,17.07,DJ,1698728394
164,remire-montjoly,4.9167,-52.2667,78.84,94,75,0.0,GF,1698728394
165,praia da vitoria,38.7333,-27.0667,66.76,77,20,13.94,PT,1698728395
166,proletarskiy,50.7914,35.7731,49.68,85,100,7.7,RU,1698728395
167,kez,57.8979,53.7152,25.02,97,98,3.76,RU,1698728395
168,mareeba,-17.0,145.4333,88.45,34,75,8.7,AU,1698728395
169,dachau,48.26,11.434,49.53,95,100,15.79,DE,1698728395
170,sao raimundo nonato,-9.0153,-42.6994,75.99,34,39,3.09,BR,1698728396
171,kavaratti,10.5669,72.642,80.02,80,100,9.78,IN,1698728396
172,saint-leu,-21.15,55.2833,81.95,75,1,3.09,RE,1698728396
173,sao jose da coroa grande,-8.8978,-35.1478,75.0,72,69,4.85,BR,1698728396
174,whitehorse,60.7161,-135.0538,34.57,93,100,0.0,CA,1698728397
175,tsiombe,-25.3,45.4833,71.35,78,64,11.9,MG,1698728397
176,yen bai,21.7,104.8667,84.02,52,61,2.35,VN,1698728397
177,illizi,26.4833,8.4667,66.0,19,0,5.97,DZ,1698728397
178,salinopolis,-0.6136,-47.3561,79.2,81,44,6.29,BR,1698728398
179,samamiya,11.3487,9.6399,69.04,28,73,2.26,NG,1698728398
180,kodiak,57.79,-152.4072,45.91,93,100,5.75,US,1698728398
181,yulinshi,38.2906,109.7494,67.55,20,14,9.44,CN,1698728398
182,kosan,38.8558,127.4181,65.77,57,3,11.18,KP,1698728398
183,savelugu,9.6244,-0.8253,77.7,76,12,4.68,GH,1698728399
184,terrace,54.5163,-128.6035,33.71,64,75,9.22,CA,1698728399
185,adrar,20.5022,-10.0711,78.26,14,0,7.49,MR,1698728399
186,mizan teferi,6.9833,35.5833,66.02,88,58,2.51,ET,1698728399
187,napier,-39.4833,176.9167,61.29,91,100,8.01,NZ,1698728137
188,aur,8.1499,171.1687,83.14,79,88,17.16,MH,1698728400
189,sarandi,-23.4436,-51.8739,69.35,94,75,6.91,BR,1698728289
190,la ronge,55.1001,-105.2842,14.22,79,0,6.91,CA,1698728400
191,sona,45.4388,10.8255,61.25,97,10,7.07,IT,1698728401
192,ola,59.5833,151.2833,30.9,67,44,6.6,RU,1698728402
193,guarapari,-20.6667,-40.4975,73.11,97,100,6.26,BR,1698728403
194,nanping,26.645,118.1736,79.72,48,1,1.95,CN,1698728404
195,nemuro,43.3236,145.575,54.52,75,36,13.49,JP,1698728409
196,maridi,4.9158,29.4742,71.42,80,83,5.26,SS,1698728410
197,nar'yan-mar,67.6713,53.087,13.1,97,87,5.99,RU,1698728413
198,hafar al-batin,28.4328,45.9708,68.58,37,0,0.0,SA,1698728413
199,namibe,-15.1961,12.1522,66.65,79,0,10.56,AO,1698728414
200,trairi,-3.2778,-39.2689,77.72,76,40,9.57,BR,1698728255
201,tura,25.5198,90.2201,80.08,63,28,1.5,IN,1698728415
202,lander,42.833,-108.7307,28.8,63,2,0.89,US,1698728415
203,bredasdorp,-34.5322,20.0403,57.61,78,3,8.05,ZA,1698728415
204,geraldton,-28.7667,114.6,88.21,20,0,24.16,AU,1698728416
205,muisne,0.6,-80.0333,77.49,83,100,10.6,EC,1698728416
206,mantua,45.1667,10.7833,63.05,91,7,5.01,IT,1698728271
207,kushiro,42.975,144.3747,58.15,77,40,11.5,JP,1698728294
208,saldanha,-33.0117,17.9442,59.05,68,3,13.04,ZA,1698728417
209,bara uchana,29.4667,76.1667,84.9,28,5,4.63,IN,1698728418
210,ilebo,-4.3167,20.5833,70.27,98,100,1.21,CD,1698728418
211,bandar lampung,-5.4254,105.258,97.86,31,45,7.92,ID,1698728418
212,yambio,4.5721,28.3955,70.38,87,90,2.39,SS,1698728419
213,beltran,-27.8291,-64.061,59.23,79,98,9.15,AR,1698728419
214,uturoa,-16.7333,-151.4333,79.57,80,9,20.0,PF,1698728419
215,cidade velha,14.9167,-23.6167,79.27,78,0,10.36,CV,1698728420
216,port mathurin,-19.6833,63.4167,76.17,81,29,18.99,MU,1698728122
217,mil'kovo,55.6078,37.7956,44.35,97,86,4.79,RU,1698728420
218,gadzhiyevo,69.2551,33.3362,30.49,87,100,10.42,RU,1698728420
219,caribou,46.8606,-68.012,30.63,92,100,4.61,US,1698728421
220,general roca,-39.0333,-67.5833,53.62,45,100,2.77,AR,1698728421
221,zeya,53.75,127.2667,23.49,41,100,1.14,RU,1698728422
222,tillaberi,14.2117,1.4531,79.83,15,11,7.72,NE,1698728422
223,pandan,14.0453,124.1694,82.65,83,100,23.35,PH,1698728422
224,harstad,68.799,16.5293,31.62,96,93,5.01,NO,1698728423
225,sungailiat,-1.85,106.1333,88.11,55,54,11.68,ID,1698728423
226,shizuishan,39.2333,106.7694,71.94,12,2,10.78,CN,1698728423
227,turtas,58.9417,69.1325,15.71,71,65,7.09,RU,1698728424
228,la'ie,21.6477,-157.9253,80.01,74,1,3.0,US,1698728424
229,akureyri,65.6835,-18.0878,17.53,93,26,0.0,IS,1698728424
230,lompoc,34.6391,-120.4579,57.58,81,0,5.75,US,1698728425
231,yaren,-0.5472,166.916,84.15,69,64,6.76,NR,1698728426
232,westport,41.1415,-73.3579,51.33,77,100,4.0,US,1698728427
233,vavuniya,8.7514,80.4971,87.82,52,100,4.94,LK,1698728427
234,horta,38.5333,-28.6333,67.01,85,22,13.0,PT,1698728428
235,laguna,38.421,-121.4238,56.64,61,0,0.0,US,1698728429
236,arica,-18.475,-70.3042,62.83,82,0,6.91,CL,1698728430
237,jamestown,42.097,-79.2353,38.71,80,100,4.61,US,1698728431
238,haiku-pauwela,20.9219,-156.3051,77.25,80,40,13.8,US,1698728431
239,borogontsy,62.6683,131.1683,12.72,87,100,7.14,RU,1698728432
240,la passe,45.5549,-0.8967,58.98,80,32,17.92,FR,1698728432
241,quelimane,-17.8786,36.8883,76.95,83,40,5.99,MZ,1698728432
242,holualoa,19.6228,-155.9522,76.78,86,2,1.99,US,1698728433
243,trasacco,41.9569,13.5345,64.0,76,70,4.76,IT,1698728433
244,coquimbo,-29.9533,-71.3436,56.93,88,20,6.91,CL,1698728434
245,hermanus,-34.4187,19.2345,56.62,79,20,14.05,ZA,1698728324
246,keelung,25.1283,121.7419,82.0,77,56,17.16,TW,1698728435
247,grand baie,-20.0182,57.5802,81.45,66,13,5.99,MU,1698728321
248,san pedro pochutla,15.7333,-96.4667,73.63,88,87,4.65,MX,1698728437
249,homer,59.6425,-151.5483,45.03,79,43,13.0,US,1698728439
250,laem sing,12.4816,102.0738,88.14,65,100,9.53,TH,1698728445
251,cabo san lucas,22.8909,-109.9124,79.75,80,19,4.45,MX,1698728429
252,adam,22.3756,57.5233,80.64,53,34,1.68,OM,1698728446
253,dunedin,-45.8742,170.5036,55.8,89,94,5.01,NZ,1698728382
254,tshabong,-26.05,22.45,57.65,70,0,20.62,BW,1698728449
255,pathein,16.7833,94.7333,86.81,63,88,9.55,MM,1698728450
256,crane,31.3974,-102.3501,41.16,46,2,3.76,US,1698728451
257,tondano,1.3038,124.9112,84.29,67,95,8.3,ID,1698728451
258,chunskiy,56.0815,99.6342,20.68,58,12,7.18,RU,1698728452
259,labytnangi,66.6572,66.4183,13.75,96,100,3.89,RU,1698728452
260,puerto baquerizo moreno,-0.9,-89.6,73.72,80,100,11.7,EC,1698728452
261,makarov,48.6333,142.8,52.38,54,45,5.48,RU,1698728452
262,puerto santa,-8.9906,-78.6456,63.72,94,43,7.23,PE,1698728453
263,mananjary,-21.2167,48.3333,82.58,59,10,6.29,MG,1698728453
264,hammerfest,70.6634,23.6821,36.05,75,20,11.5,NO,1698728428
265,puerto ayora,-0.7393,-90.3518,74.55,93,100,1.99,EC,1698728454
266,mount pearl,47.5166,-52.7813,34.07,95,100,4.61,CA,1698728455
267,nova vicosa,-17.8919,-39.3719,73.36,80,98,5.19,BR,1698728455
268,caburan,5.9181,125.6411,83.62,82,98,1.36,PH,1698728456
269,richmond,37.5538,-77.4603,55.38,86,100,9.22,US,1698728188
270,madinat ash shamal,26.1293,51.2009,83.55,61,89,3.29,QA,1698728456
271,marietta,33.9526,-84.5499,52.7,83,40,9.22,US,1698728456
272,ringkobing,56.0901,8.244,40.01,80,100,24.9,DK,1698728456
273,monrovia,6.3005,-10.7969,76.77,90,7,5.88,LR,1698728412
274,bridgewater,44.3835,-64.5155,40.68,98,100,10.36,CA,1698728457
275,san carlos de bariloche,-41.1456,-71.3082,33.55,93,100,2.3,AR,1698728458
276,mapimi,25.8167,-103.85,45.84,75,100,5.99,MX,1698728458
277,usinsk,65.9939,57.5281,16.07,81,95,7.0,RU,1698728459
278,vejen,55.4833,9.15,46.45,100,100,12.66,DK,1698728459
279,mahajanga,-15.7167,46.3167,84.22,58,20,13.8,MG,1698728459
280,qianzhou,28.3167,109.7167,79.11,49,62,1.03,CN,1698728460
281,silchar,24.8167,92.8,89.51,46,56,4.16,IN,1698728460
282,rokiskis,55.9667,25.5833,43.84,94,100,8.68,LT,1698728460
283,palmer,42.1584,-72.3287,45.07,75,100,12.66,US,1698728460
284,guimar,28.3039,-16.4325,70.38,70,100,1.01,ES,1698728461
285,gisborne,-38.6533,178.0042,61.79,96,100,5.41,NZ,1698728461
286,iskateley,67.6803,53.1512,13.01,97,87,5.99,RU,1698728461
287,as sulayyil,20.4607,45.5779,75.45,30,100,11.83,SA,1698728462
288,san luis de la loma,17.2706,-100.8939,77.83,97,63,3.6,MX,1698728462
289,taulaga,-11.0553,-171.0883,83.05,79,47,20.71,AS,1698728463
290,jabor,5.921,169.6434,83.1,74,65,11.45,MH,1698728463
291,hithadhoo,-0.6,73.0833,80.92,79,69,9.8,MV,1698728464
292,acarau,-2.8856,-40.12,80.17,73,58,16.28,BR,1698728464
293,curuan,7.2053,122.2331,89.53,78,79,3.11,PH,1698728465
294,ingeniero jacobacci,-41.3427,-69.5448,38.88,70,94,1.16,AR,1698728466
295,new norfolk,-42.7826,147.0587,60.71,51,95,11.14,AU,1698728466
296,east porterville,36.0574,-118.9757,51.62,58,0,0.0,US,1698728466
297,hiratacho,35.4333,132.8167,69.82,49,20,3.44,JP,1698728467
298,polyarnyy,69.1989,33.4478,20.66,95,100,8.16,RU,1698728467
299,lata,40.1629,-8.3327,51.08,92,100,3.44,PT,1698728468
300,van,38.4924,43.3831,54.86,57,100,6.42,TR,1698728468
301,belel,7.05,14.4333,63.45,84,99,2.82,CM,1698728469
302,ocean city,39.2776,-74.5746,53.85,73,100,11.01,US,1698728237
303,hegang,47.4,130.3667,36.09,92,100,6.6,CN,1698728469
304,ajdabiya,30.7554,20.2263,66.13,67,1,6.51,LY,1698728470
305,brokopondo,4.75,-55.1667,78.69,81,12,10.4,SR,1698728470
306,mariinsk,56.2139,87.7472,25.72,66,100,11.79,RU,1698728471
307,mogadishu,2.0371,45.3438,80.47,89,40,1.14,SO,1698728472
308,warmbad,-28.45,18.7333,60.55,61,0,17.96,NA,1698728472
309,avarua,-21.2078,-159.775,75.25,69,75,14.97,CK,1698728473
310,derzhavinsk,51.1,66.3167,35.01,73,90,17.38,KZ,1698728474
311,ancud,-41.8697,-73.8203,39.78,92,12,6.73,CL,1698728474
312,taroa,8.7058,171.2275,82.74,79,66,17.09,MH,1698728475
313,broken hill,-31.95,141.4333,71.4,24,67,7.94,AU,1698728228
314,quepos,9.4236,-84.1652,77.31,86,100,1.99,CR,1698728475
315,tingi,-11.3,35.0333,69.94,60,98,8.5,TZ,1698728476
316,montescaglioso,40.5522,16.6669,68.99,92,100,3.58,IT,1698728476
317,henryetta,35.4398,-95.9819,34.77,68,0,2.39,US,1698728477
318,ghanzi,-21.5667,21.7833,66.42,73,3,16.58,BW,1698728477
319,tukrah,32.5341,20.5791,67.06,85,3,4.14,LY,1698728477
320,ojinaga,29.5667,-104.4167,48.58,47,69,3.76,MX,1698728478
321,ain sefra,32.75,-0.5833,59.2,62,96,1.28,DZ,1698728478
322,orkney,-26.9802,26.6727,47.98,84,100,8.03,ZA,1698728479
323,esquel,-42.9,-71.3167,28.71,91,45,2.77,AR,1698728479
324,quintanar del rey,39.3382,-1.9389,43.81,81,100,5.17,ES,1698728479
325,simanggang,1.2472,111.4528,85.98,79,40,1.14,MY,1698728479
326,inari,68.906,27.0288,19.6,94,97,4.03,FI,1698728480
327,atafu village,-8.5421,-172.5159,84.45,74,27,13.98,TK,1698728480
328,revda,56.801,59.9303,25.34,90,97,4.68,RU,1698728481
329,lerwick,60.1545,-1.1494,41.0,58,50,20.51,GB,1698728481
330,talara,-4.5772,-81.2719,69.51,83,94,15.86,PE,1698728481
331,ust-nera,64.5667,143.2,9.57,98,100,4.72,RU,1698728482
332,shingu,33.7333,135.9833,68.13,56,31,4.88,JP,1698728482
333,port alfred,-33.5906,26.891,59.18,84,16,3.0,ZA,1698728482
334,calama,-22.4667,-68.9333,46.89,42,0,14.97,CL,1698728473
335,nizhnyaya poyma,56.1622,97.1933,24.26,51,88,10.16,RU,1698728483
336,coyhaique,-45.5752,-72.0662,39.81,81,40,0.0,CL,1698728483
337,shangzhi,45.2167,127.9667,42.69,87,100,2.62,CN,1698728484
338,kargasok,59.0556,80.8572,12.96,93,6,8.01,RU,1698728484
339,port lincoln,-34.7333,135.8667,60.24,50,20,12.71,AU,1698728484
340,hovd,48.0056,91.6419,50.72,40,85,2.17,MN,1698728485
341,nema,57.5067,50.5011,26.73,95,99,5.59,RU,1698728485
342,miahuatlan de porfirio diaz,16.3333,-96.6,59.92,90,48,5.84,MX,1698728486
343,anna regina,7.2644,-58.5077,81.79,81,3,8.46,GY,1698728486
344,kerteminde,55.449,10.6577,49.96,95,100,23.17,DK,1698728486
345,myeik,12.4333,98.6,86.65,65,83,8.05,MM,1698728486
346,vrangel',42.7297,133.0839,56.79,86,77,5.5,RU,1698728487
347,vorgashor,67.5833,63.95,14.14,94,100,10.89,RU,1698728487
348,ouadda,8.0777,22.4007,70.47,77,70,4.36,CF,1698728488
349,robbah,33.2797,6.9098,65.84,17,49,9.28,DZ,1698728488
350,sao lourenco do sul,-31.3653,-51.9783,64.87,96,78,6.64,BR,1698728488
351,maslova pristan',50.4587,36.7408,51.15,81,90,7.85,RU,1698728488
352,fasa,28.9383,53.6482,60.04,48,40,0.0,IR,1698728488
353,gore,-46.1028,168.9436,64.09,64,100,1.45,NZ,1698728417
354,enriquillo,17.9,-71.2333,79.92,86,100,3.6,DO,1698728489
355,dudinka,69.4058,86.1778,4.62,97,98,1.99,RU,1698728489
356,qaqortoq,60.7167,-46.0333,36.97,88,100,12.77,GL,1698728490
357,khash,28.2211,61.2158,73.35,24,10,8.93,IR,1698728490
358,carnarvon,-24.8667,113.6333,79.07,49,0,16.44,AU,1698728490
359,ahtari,62.554,24.0619,25.56,93,100,7.25,FI,1698728491
360,oakdale,44.963,-92.9649,31.75,93,100,11.5,US,1698728491
361,prado,-17.3411,-39.2208,74.26,80,76,9.17,BR,1698728491
362,sandnessjoen,66.0217,12.6316,26.71,74,0,6.91,NO,1698728491
363,waddan,29.1614,16.139,67.12,52,38,6.69,LY,1698728492
364,morondava,-20.2833,44.2833,77.88,66,4,6.26,MG,1698728492
365,kotido,2.9806,34.1331,69.94,78,69,11.92,UG,1698728492
366,rio grande,-32.035,-52.0986,65.95,96,67,8.95,BR,1698728493
367,la mira tumbiscatio,18.6833,-102.2833,73.08,92,22,4.14,MX,1698728493
368,blackwater,-23.5833,148.8833,95.7,14,16,1.61,AU,1698728493
369,new bern,35.1085,-77.0441,71.01,91,19,5.37,US,1698728494
370,mugia,43.1041,-9.2179,55.9,77,47,18.03,ES,1698728494
371,monte alegre,-2.0078,-54.0692,78.94,65,97,3.29,BR,1698728494
372,island harbour,50.724,-1.2758,52.99,94,100,8.61,GB,1698728495
373,santa maria del oro,25.9333,-105.3667,48.6,75,100,2.51,MX,1698728495
374,mount isa,-20.7333,139.5,101.97,19,40,8.05,AU,1698728495
375,at tall al kabir,30.5445,31.7853,72.93,76,95,5.44,EG,1698728495
376,villa la angostura,-40.7617,-71.6463,31.6,97,96,1.79,AR,1698728496
377,montelibano,7.9829,-75.4229,74.44,89,100,3.02,CO,1698728496
378,bondoukou,8.0333,-2.8,72.43,92,3,3.22,CI,1698728496
379,susuman,62.7833,148.1667,7.99,94,72,1.01,RU,1698728497
380,childress,34.4264,-100.204,32.92,38,0,3.31,US,1698728497
381,kokpekty,48.75,82.4,46.31,98,100,11.43,KZ,1698728497
382,gulf shores,30.246,-87.7008,59.05,71,40,12.66,US,1698728498
383,nova olimpia,-14.7972,-57.2881,73.49,92,77,2.44,BR,1698728498
384,elko,41.0002,-115.5012,37.63,32,0,5.01,US,1698728498
385,los andes,-32.8337,-70.5983,53.01,69,100,1.34,CL,1698728499
386,kristiansund,63.1115,7.732,27.25,74,0,0.0,NO,1698728499
387,koryazhma,61.3143,47.1691,27.91,82,100,1.54,RU,1698728499
388,ponta delgada,37.7333,-25.6667,67.19,77,75,12.66,PT,1698728500
389,koupela,12.1794,-0.3517,80.28,26,5,6.6,BF,1698728500
390,turochak,52.2576,87.1224,39.58,99,100,1.28,RU,1698728500
391,amahai,-3.3333,128.9167,85.86,67,70,8.97,ID,1698728501
392,itoman,26.1247,127.6694,81.37,67,40,18.41,JP,1698728501
393,gamba,-2.65,10.0,77.07,91,100,4.72,GA,1698728501
394,khabary,53.6259,79.5345,29.71,96,100,6.13,RU,1698728502
395,murray bridge,-35.1167,139.2667,66.34,39,10,17.09,AU,1698728502
396,saint-paul,-21.0096,55.2707,82.99,75,1,1.01,RE,1698728382
397,bokhan,53.153,103.7714,30.49,42,98,3.85,RU,1698728503
398,pochep,52.9336,33.4464,47.57,94,100,5.5,RU,1698728503
399,shubarshi,48.5872,57.1869,39.56,72,98,10.83,KZ,1698728503
400,nykobing sjaelland,55.9249,11.6711,48.52,93,100,20.04,DK,1698728504
401,beruwala,6.4788,79.9828,82.42,75,54,3.56,LK,1698728505
402,zarzis,33.504,11.1122,78.39,36,97,8.55,TN,1698728505
403,nadi,-17.8,177.4167,89.6,58,40,13.8,FJ,1698728505
404,lesparre-medoc,45.3,-0.9333,57.79,83,39,15.01,FR,1698728506
405,angra do heroismo,38.65,-27.2167,67.12,89,20,13.0,PT,1698728506
406,tralee,52.2704,-9.7026,48.92,88,78,4.16,IE,1698728507
407,benguela,-12.5763,13.4055,74.73,83,24,3.18,AO,1698728507
408,venice,27.0998,-82.4543,75.22,92,0,6.91,US,1698728507
409,alta sierra,35.7291,-118.5495,36.1,22,0,6.13,US,1698728507
410,hamilton,39.1834,-84.5333,36.73,83,9,4.0,US,1698728508
411,pilibhit,28.6333,79.8,80.19,47,16,2.68,IN,1698728508
412,yangambi,0.8102,24.4336,72.01,96,100,1.41,CD,1698728508
413,klaksvik,62.2266,-6.589,38.32,63,85,18.45,FO,1698728508
414,sanming,26.2486,117.6186,79.57,45,12,4.56,CN,1698728509
415,callao,-12.0667,-77.15,68.72,82,75,11.5,PE,1698728242
416,zouerate,22.7187,-12.4521,77.09,19,0,5.46,MR,1698728509
417,nuku'alofa,-21.1333,-175.2,80.94,78,20,14.97,TO,1698728509
418,chimoio,-19.1164,33.4833,57.06,100,100,7.25,MZ,1698728509
419,jati,24.3539,68.2671,92.16,22,0,8.46,PK,1698728510
420,gagliano del capo,39.8442,18.3695,69.82,81,96,22.82,IT,1698728510
421,las palmas de gran canaria,28.0997,-15.4134,69.93,73,20,5.75,ES,1698728398
422,kangding,30.0513,101.9603,60.73,56,34,1.21,CN,1698728510
423,baikunthpur,23.25,82.55,77.25,48,87,4.18,IN,1698728510
424,ed damer,17.5928,33.9592,82.22,52,22,11.59,SD,1698728511
425,khorramabad,33.4878,48.3558,60.42,44,100,4.61,IR,1698728511
426,sitka,57.0531,-135.33,46.29,87,100,4.61,US,1698728511
427,carbonear,47.7332,-53.2148,35.35,92,100,3.18,CA,1698728511
428,chibougamau,49.9168,-74.3659,19.02,93,0,4.61,CA,1698728261
429,siwa oasis,29.2041,25.5195,69.44,78,1,5.64,EG,1698728512
430,quiberon,47.4841,-3.1196,59.07,83,28,15.01,FR,1698728512
431,waldkappel,51.15,9.8833,52.11,85,100,15.26,DE,1698728512
432,gretna,29.9147,-90.054,57.2,75,100,20.71,US,1698728406
433,vadso,70.0744,29.7487,32.16,80,40,9.22,NO,1698728513
434,petropavlovsk-kamchatsky,53.0452,158.6483,41.59,62,0,11.99,RU,1698728513
435,kashgar,39.4547,75.9797,63.61,23,0,4.47,CN,1698728513
436,san antonio de pale,-1.4014,5.6325,79.52,85,100,13.76,GQ,1698728513
437,abeche,13.8292,20.8324,78.22,23,98,8.93,TD,1698728513
438,farsan,32.2569,50.561,50.04,38,83,4.38,IR,1698728514
439,toamasina,-18.1667,49.3833,84.2,70,40,5.75,MG,1698728514
440,hotan,37.0997,79.9269,67.73,12,3,4.36,CN,1698728514
441,alamos,27.0167,-108.9333,65.59,51,0,1.97,MX,1698728414
442,myitkyina,25.3833,97.4,86.61,39,37,0.51,MM,1698728515
443,wailea,19.8858,-155.123,76.23,89,100,5.75,US,1698728515
444,marquette,46.5333,-87.6335,27.77,58,100,3.0,US,1698728515
445,isabel segunda,18.1491,-65.4427,80.87,99,100,1.01,PR,1698728515
446,bel ombre,-4.6167,55.4167,82.24,78,20,10.36,SC,1698728515
447,muroto-misakicho,33.2833,134.15,67.17,61,51,3.47,JP,1698728516
448,nyurba,63.2842,118.3319,9.32,91,99,3.2,RU,1698728516
449,nabire,-3.3667,135.4833,82.31,83,35,4.23,ID,1698728516
450,kasaragod,12.5,75.0,79.41,84,100,2.55,IN,1698728516
451,san-pedro,4.7485,-6.6363,76.89,92,41,3.87,CI,1698728486
452,egilsstadir,65.2653,-14.3948,17.51,93,75,1.14,IS,1698728517
453,isoka,-10.1606,32.6335,73.74,54,58,6.13,ZM,1698728517
454,ajra,16.1167,74.2,81.68,58,40,8.68,IN,1698728517
455,tyup,42.7276,78.3648,54.39,52,100,3.65,KG,1698728518
456,gvardeysk,54.6477,21.0651,52.34,76,99,13.0,RU,1698728518
457,touros,-5.1989,-35.4608,76.53,76,69,10.04,BR,1698728518
458,kawambwa,-9.7915,29.0791,72.14,58,100,5.21,ZM,1698728518
459,kisangani,0.5167,25.2,72.0,97,100,1.01,CD,1698728519
460,baoshan,46.5586,131.4244,42.8,76,100,2.53,CN,1698728519
461,santa marta de ortigueira,43.6833,-7.85,57.67,83,27,16.11,ES,1698728519
462,ta`u,-14.2336,-169.5144,80.55,79,22,23.82,AS,1698728519
463,nelson bay,-32.7167,152.15,77.05,49,72,23.0,AU,1698728520
464,kantagi,43.5264,68.5775,50.99,56,62,15.05,KZ,1698728520
465,chepo,9.1667,-79.1,80.01,94,98,3.6,PA,1698728520
466,saint-francois,46.4154,3.9054,49.68,87,75,5.75,FR,1698728520
467,khandyga,62.6667,135.6,16.16,94,100,3.74,RU,1698728520
468,yanchep,-31.55,115.6833,80.02,31,74,8.1,AU,1698728521
469,ashland,40.8167,-82.2665,34.34,97,6,6.4,US,1698728247
470,fortuna,40.5982,-124.1573,45.52,100,0,10.36,US,1698728522
471,bastia,42.6667,9.3333,65.53,62,0,5.75,FR,1698728522
472,kousseri,12.0769,15.0306,69.76,43,32,3.44,CM,1698728523
473,kirakira,-10.4544,161.9205,83.5,77,37,11.32,SB,1698728524
474,yelizovo,53.1873,158.3805,42.94,52,0,11.18,RU,1698728525
475,puerto carreno,6.189,-67.4859,77.47,86,45,3.44,CO,1698728418
476,parral,26.9333,-105.6667,40.46,76,65,1.99,MX,1698728298
477,tefenni,37.3097,29.7754,55.49,55,28,2.71,TR,1698728526
478,kem',64.9555,34.5793,19.58,89,14,8.63,RU,1698728526
479,jalapa,19.5333,-96.9167,55.58,93,88,5.68,MX,1698728277
480,trincomalee,8.5711,81.2335,83.75,70,83,10.87,LK,1698728527
481,alice springs,-23.7,133.8833,90.95,11,3,10.36,AU,1698728493
482,quatre cocos,-20.2078,57.7625,81.09,73,25,9.06,MU,1698728528
483,taixing,32.1667,120.0136,80.82,33,0,7.67,CN,1698728528
484,mitu,1.1983,-70.1733,75.42,84,58,2.28,CO,1698728529
485,ciudad lazaro cardenas,17.9583,-102.2,78.26,90,11,4.27,MX,1698728529
486,zhezqazghan,47.7833,67.7667,36.18,80,100,15.66,KZ,1698728529
487,chavusy,53.8075,30.9712,45.86,94,100,6.8,BY,1698728530
488,new kingman-butler,35.265,-114.0323,56.32,16,0,9.22,US,1698728531
489,aleksandrovsk,59.158,57.5624,24.8,87,98,3.38,RU,1698728531
490,alto piquiri,-24.0281,-53.4406,69.89,96,99,7.7,BR,1698728531
491,gatton,-27.55,152.2833,99.54,14,16,12.57,AU,1698728532
492,san rafael,-34.6177,-68.3301,49.51,30,0,3.31,AR,1698728459
493,port alberni,49.2413,-124.8028,46.24,91,41,0.4,CA,1698728532
494,prince rupert,54.3161,-130.3201,42.49,88,0,4.61,CA,1698728427
495,mahanoro,-19.9,48.8,80.58,66,27,9.22,MG,1698728533
496,olyokminsk,60.3736,120.4264,22.03,46,100,3.02,RU,1698728533
497,greenfield,42.9614,-88.0126,29.68,70,0,1.99,US,1698728359
498,itaituba,-4.2761,-55.9836,74.91,89,92,2.42,BR,1698728534
499,chifeng,42.2683,118.9636,65.43,22,61,13.82,CN,1698728535
500,esil,51.9556,66.4042,32.45,81,100,15.35,KZ,1698728535
501,kabinda,-6.1333,24.4833,68.36,93,100,2.77,CD,1698728536
502,ivdel',60.6911,60.4206,24.03,65,97,8.99,RU,1698728536
503,urucui,-7.2294,-44.5561,75.18,35,9,1.23,BR,1698728536
504,puerto armuelles,8.2833,-82.8667,81.09,75,100,10.0,PA,1698728537
505,vernon,50.2581,-119.2691,34.29,71,27,5.75,CA,1698728436
506,paola,39.3599,16.0396,69.76,71,90,2.84,IT,1698728537
507,kalmunai,7.4167,81.8167,83.34,73,95,6.8,LK,1698728537
508,storvreta,59.9667,17.7,41.05,100,100,5.75,SE,1698728538
509,kampung sungai ara,5.327,100.2735,91.31,58,20,9.22,MY,1698728538
510,krotovka,53.2858,51.1686,44.02,86,100,14.65,RU,1698728539
511,lexington,37.9887,-84.4777,41.0,82,0,5.75,US,1698728429
512,mahdia,35.5047,11.0622,73.35,77,71,19.55,TN,1698728540
513,uvira,-3.4067,29.1458,78.4,69,92,3.33,CD,1698728541
514,wilmington island,32.0036,-80.9737,68.99,96,82,4.59,US,1698728542
515,bodo,67.28,14.405,25.77,81,0,16.11,NO,1698728542
516,outjo,-20.1167,16.15,64.99,27,0,3.98,NA,1698728543
517,tommot,58.9564,126.2925,15.91,77,55,1.05,RU,1698728543
518,nishinoomote,30.7333,131.0,73.96,60,40,4.61,JP,1698728543
519,sisimiut,66.9395,-53.6735,28.74,60,62,7.85,GL,1698728544
520,margate,51.3813,1.3862,46.69,96,12,4.7,GB,1698728544
521,gaoual,11.75,-13.2,72.9,93,86,1.77,GN,1698728544
522,portstewart,55.1813,-6.714,47.64,73,100,23.58,GB,1698728545
523,tres palos,18.1833,-101.6167,73.06,98,40,2.73,MX,1698728545
524,oued el abtal,35.456,0.6878,62.67,79,98,1.79,DZ,1698728546
525,patan,27.6667,85.3333,72.09,60,20,2.3,NP,1698728546
526,peace river,56.2501,-117.286,32.31,74,100,6.91,CA,1698728392
527,kununurra,-15.7667,128.7333,102.69,22,100,0.69,AU,1698728547
528,aberdeen,57.1437,-2.0981,40.19,83,40,6.91,GB,1698728504
529,camarinas,43.1311,-9.1817,55.92,79,47,17.11,ES,1698728548
530,emerald,-23.5333,148.1667,97.34,17,11,3.31,AU,1698728548
531,popondetta,-8.7537,148.2534,79.56,81,100,3.85,PG,1698728549
532,sbikha,35.9333,10.0208,67.96,80,63,7.36,TN,1698728549
533,huanggang,23.677,116.9996,84.09,54,65,9.37,CN,1698728392
534,andergrove,-21.0833,149.1833,87.64,54,6,9.86,AU,1698728550
535,rabigh,22.7986,39.0349,84.11,62,0,3.65,SA,1698728550
536,sao joao da barra,-21.6403,-41.0511,75.09,93,100,10.0,BR,1698728551
537,albertina,-22.2008,-46.6158,67.06,88,97,2.01,BR,1698728551
538,kibondo,-3.5864,30.7203,68.61,65,87,4.03,TZ,1698728551
539,kaoma,-14.7833,24.8,68.56,80,94,6.15,ZM,1698728549
540,yoloten,37.2989,62.3597,64.24,41,100,18.14,TM,1698728552
541,zabol,32.25,67.25,64.24,24,6,3.0,AF,1698728552
542,saint-joseph,-21.3667,55.6167,81.46,65,7,7.58,RE,1698728553
543,verdal,63.7933,11.4817,15.84,78,5,4.03,NO,1698728553
544,guajara mirim,-10.7828,-65.3394,75.97,67,58,2.68,BR,1698728553
545,santona,43.4439,-3.4576,57.51,72,2,6.29,ES,1698728554
546,kerikeri,-35.2268,173.9474,69.91,84,61,3.0,NZ,1698728554
547,xiaoweizhai,26.1903,107.5125,76.3,42,100,2.39,CN,1698728338
548,yamada,39.4667,141.95,62.06,63,2,5.01,JP,1698728555
549,abasolo,20.45,-101.5167,57.15,59,7,3.67,MX,1698728555
550,sault ste. marie,46.5168,-84.3333,30.02,94,75,3.44,CA,1698728555
551,santa terezinha,-29.9002,-50.0904,65.03,92,100,9.78,BR,1698728555
552,katsuura,35.1333,140.3,69.21,56,58,5.64,JP,1698728556
553,huanuni,-18.2667,-66.85,42.19,22,71,3.96,BO,1698728556
554,saint-philippe,-21.3585,55.7679,80.19,69,10,11.92,RE,1698728556
555,greytown,-29.0642,30.5928,46.63,95,100,0.63,ZA,1698728557
556,yung shue wan,22.2333,114.1167,84.79,59,67,1.99,HK,1698728557
557,shenjiamen,29.9576,122.298,72.16,58,0,7.05,CN,1698728557
558,tofol,5.3248,163.0078,83.79,73,56,7.87,FM,1698728557
559,portland,45.5234,-122.6762,51.08,53,0,11.01,US,1698728542
560,tosontsengel,48.7567,98.2839,39.16,74,100,6.69,MN,1698728558
561,kuching,1.55,110.3333,88.02,70,40,6.91,MY,1698728261
562,bolhrad,45.6826,28.6149,55.69,77,95,9.04,UA,1698728558
563,manacapuru,-3.2997,-60.6206,77.95,81,95,3.36,BR,1698728559
564,luanda,-8.8368,13.2343,77.0,83,75,1.14,AO,1698728559
565,peterhead,57.5058,-1.7981,36.0,59,7,20.31,GB,1698728559
566,fort bragg,35.139,-79.006,67.84,79,0,6.91,US,1698728560
567,sao gabriel da cachoeira,-0.1303,-67.0892,75.04,89,100,0.38,BR,1698728422
568,baniachang,24.5167,91.3667,85.19,58,74,4.21,BD,1698728560
569,richards bay,-28.783,32.0377,60.67,85,98,1.97,ZA,1698728560
570,abadan,30.3392,48.3043,69.75,60,88,2.3,IR,1698728561
571,yongchuan,29.3514,105.8947,70.43,69,76,2.91,CN,1698728561
572,natal,-5.795,-35.2094,75.42,83,40,4.61,BR,1698728561
573,east ballina,-28.8667,153.5833,94.8,47,13,16.75,AU,1698728562
574,papao,-17.75,-149.55,80.28,83,10,23.26,PF,1698728562
575,guerrero negro,27.9769,-114.0611,69.44,45,0,5.64,MX,1698728562
576,sultanah,24.4926,39.5857,72.05,68,0,5.75,SA,1698728562
577,thinadhoo,0.5333,72.9333,80.96,79,70,7.76,MV,1698728563
578,rudsar,37.1376,50.288,64.38,71,99,3.22,IR,1698728563
579,ekpoma,6.7421,6.139,70.86,95,100,3.15,NG,1698728563
580,beira,-19.8436,34.8389,66.29,100,100,8.05,MZ,1698728564
581,mwene-ditu,-7.0,23.45,67.37,91,100,2.8,CD,1698728564
